{
"type": "FeatureCollection",
"year": 2017,

"features": [
{ "type": "Feature", "link": "http://www.yelp.com/biz/home-san-francisco-16", "properties": { "Name": "Home "}, "geometry": { "type": "Point", "coordinates": [ -122.477059,37.754672] } },
{ "type": "Feature", "link": "http://www.yelp.com/biz/artis-coffee-san-francisco-3", "properties": { "Name": "Artis Coffee "}, "geometry": { "type": "Point", "coordinates": [ -122.424780,37.777344] } },
{ "type": "Feature", "link": "http://www.yelp.com/biz/philz-coffee-san-francisco-16", "properties": { "Name": "Philz "}, "geometry": { "type": "Point", "coordinates": [ -122.390337,37.754462] } },
{ "type": "Feature", "link": "http://www.yelp.com/biz/iron-horse-coffee-bar-san-francisco", "properties": { "Name": "Iron Horse Coffee Bar "}, "geometry": { "type": "Point", "coordinates": [ -122.404076,37.788259] } },
{ "type": "Feature", "link": "http://www.yelp.com/biz/piccolo-petes-cafe-san-francisco", "properties": { "Name": "Piccolo Pete "}, "geometry": { "type": "Point", "coordinates": [-122.4007724,37.7126369] } },
{ "type": "Feature", "link": "http://www.yelp.com/biz/equator-coffees-and-teas-san-francisco", "properties": { "Name": "Equator Coffee "}, "geometry": { "type": "Point", "coordinates": [-122.4100059,37.7828286] } },
{ "type": "Feature", "link": "http://www.yelp.com/biz/repose-coffee-bar-and-gallery-san-francisco", "properties": { "Name": "Repose Coffee "}, "geometry": { "type": "Point", "coordinates": [-122.4368774,37.771485] } },
{ "type": "Feature", "link": "http://www.yelp.com/biz/philz-coffee-san-francisco-13", "properties": { "Name": "Philz "}, "geometry": { "type": "Point", "coordinates": [-122.4391137,37.8066235] } },
{ "type": "Feature", "link": "http://www.yelp.com/biz/hearth-coffee-roasters-san-francisco-4", "properties": { "Name": "Hearth Coffee Roasters "}, "geometry": { "type": "Point", "coordinates": [-122.4347627,37.7623395] } },
{ "type": "Feature", "link": "http://www.yelp.com/biz/red-door-coffee-san-francisco-3", "properties": { "Name": "Red Door Coffee "}, "geometry": { "type": "Point", "coordinates": [-122.3961709,37.7879529] } },
{ "type": "Feature", "link": "http://www.yelp.com/biz/the-richfield-san-francisco", "properties": { "Name": "The Richfield "}, "geometry": { "type": "Point", "coordinates": [-122.4637688,37.7849392] } },
{ "type": "Feature", "link": "http://www.yelp.com/biz/blue-bottle-coffee-san-francisco-12", "properties": { "Name": "Blue Bottle "}, "geometry": { "type": "Point", "coordinates": [-122.4163715,37.7767396] } },
{ "type": "Feature", "link": "http://www.yelp.com/biz/lunas-coffee-house-san-francisco-3", "properties": { "Name": "Luna's Coffee House "}, "geometry": { "type": "Point", "coordinates": [-122.406419,37.7540982] } },
{ "type": "Feature", "link": "http://www.yelp.com/biz/mazarine-coffee-san-francisco-2", "properties": { "Name": "Mazarine Coffee "}, "geometry": { "type": "Point", "coordinates": [-122.4038912,37.7875432] } },
{ "type": "Feature", "link": "http://www.yelp.com/biz/cube-tea-san-francisco", "properties": { "Name": "Cube Tea "}, "geometry": { "type": "Point", "coordinates": [-122.4258564,37.7756811] } },
{ "type": "Feature", "link": "http://www.yelp.com/biz/blanc-cafe-san-francisco-2", "properties": { "Name": "Blanc Cafe "}, "geometry": { "type": "Point", "coordinates": [-122.4638436,37.7639869] } },
{ "type": "Feature", "link": "http://www.yelp.com/biz/nameless-tea-and-coffee-san-francisco", "properties": { "Name": "Nameless Tea & Coffee "}, "geometry": { "type": "Point", "coordinates": [-122.4395603,37.7159192] } },
{ "type": "Feature", "link": "http://www.yelp.com/biz/sharetea-san-francisco", "properties": { "Name": "ShareTea "}, "geometry": { "type": "Point", "coordinates": [-122.4768277,37.7806471] } },
{ "type": "Feature", "link": "http://www.yelp.com/biz/newtree-cafe-and-chocolate-shop-san-francisco-3", "properties": { "Name": "NewTree Cafe "}, "geometry": { "type": "Point", "coordinates": [-122.400294,37.7929446] } },
{ "type": "Feature", "link": "http://www.yelp.com/biz/carafe-cafe-san-francisco", "properties": { "Name": "Carafe Cafe "}, "geometry": { "type": "Point", "coordinates": [-122.4083633,37.776077] } },
{ "type": "Feature", "link": "http://www.yelp.com/biz/caffe-central-san-francisco-4", "properties": { "Name": "Caffe Central "}, "geometry": { "type": "Point", "coordinates": [-122.4591531,37.7634786] } },
{ "type": "Feature", "link": "http://www.yelp.com/biz/zodiac-coffee-and-tea-san-francisco", "properties": { "Name": "Zodiac Coffee & Tea "}, "geometry": { "type": "Point", "coordinates": [-122.4352632,37.7238218] } },
{ "type": "Feature", "link": "http://www.yelp.com/biz/pivot-coffee-san-francisco-2", "properties": { "Name": "Pivot/Coffee "}, "geometry": { "type": "Point", "coordinates": [-122.4033069,37.7710325] } },
{ "type": "Feature", "link": "http://www.yelp.com/biz/galvanize-cafe-san-francisco-4", "properties": { "Name": "Galvanize Cafe "}, "geometry": { "type": "Point", "coordinates": [-122.3965335,37.7874944] } },
{ "type": "Feature", "link": "http://www.yelp.com/biz/la-capra-san-francisco-4", "properties": { "Name": "La Capra "}, "geometry": { "type": "Point", "coordinates": [-122.3983425,37.7826875] } },
{ "type": "Feature", "link": "http://www.yelp.com/biz/la-lucha-coffee-bar-san-francisco", "properties": { "Name": "La Lucha Coffee Bar "}, "geometry": { "type": "Point", "coordinates": [-122.3999122,37.7651244] } },
{ "type": "Feature", "link": "http://www.yelp.com/biz/philz-coffee-san-francisco-22", "properties": { "Name": "Philz "}, "geometry": { "type": "Point", "coordinates": [-122.4013947,37.7648657] } },
{ "type": "Feature", "link": "http://www.yelp.com/biz/chai-bar-by-david-rio-san-francisco", "properties": { "Name": "Chai Bar "}, "geometry": { "type": "Point", "coordinates": [-122.4105217,37.7816943] } },
{ "type": "Feature", "link": "http://www.yelp.com/biz/tongwong-coffee-san-francisco", "properties": { "Name": "Tongwong Coffee "}, "geometry": { "type": "Point", "coordinates": [-122.4059708,37.7820743] } },
{ "type": "Feature", "link": "http://www.yelp.com/biz/nourish-cafe-san-francisco", "properties": { "Name": "Nourish Cafe "}, "geometry": { "type": "Point", "coordinates": [-122.4647832,37.7852405] } }
]
}