{
"type": "FeatureCollection",
"year": 2013,

"features": [
{ "type": "Feature", "properties": { "Name": "b. Patisserie"}, "geometry": { "type": "Point", "coordinates": [ -122.440578,37.788057] } },
{ "type": "Feature", "properties": { "Name": "fifty/fifty"}, "geometry": { "type": "Point", "coordinates": [-122.4529934,37.7815259] } },
{ "type": "Feature", "properties": { "Name": "Stanza Coffee"}, "geometry": { "type": "Point", "coordinates": [-122.4226486,37.765072] } },
{ "type": "Feature", "properties": { "Name": "Trouble Coffee"}, "geometry": { "type": "Point", "coordinates": [-122.3940816,37.7283851] } },
{ "type": "Feature", "properties": { "Name": "Philz"}, "geometry": { "type": "Point", "coordinates": [-122.4165902,37.7813147] } },
{ "type": "Feature", "properties": { "Name": "Hole in the Wall Coffee"}, "geometry": { "type": "Point", "coordinates": [-122.408086,37.8007086] } },
{ "type": "Feature", "properties": { "Name": "Beacon Coffee & Pantry"}, "geometry": { "type": "Point", "coordinates": [-122.4133476,37.802258] } },
{ "type": "Feature", "properties": { "Name": "Un Cafecito"}, "geometry": { "type": "Point", "coordinates": [-122.4129842,37.7844281] } },
{ "type": "Feature", "properties": { "Name": "Antigua Coffee Shop"}, "geometry": { "type": "Point", "coordinates": [-122.4783486,37.7427865] } },
{ "type": "Feature", "properties": { "Name": "Red Door Coffee"}, "geometry": { "type": "Point", "coordinates": [-122.3994072,37.7873388] } },
{ "type": "Feature", "properties": { "Name": "Il Canto Cafe"}, "geometry": { "type": "Point", "coordinates": [-122.4005081,37.7938798] } },
{ "type": "Feature", "properties": { "Name": "Martha & Brothers Co"}, "geometry": { "type": "Point", "coordinates": [-122.4622341,37.7640791] } },
{ "type": "Feature", "properties": { "Name": "Acre Coffee"}, "geometry": { "type": "Point", "coordinates": [-122.4193097,37.7809078] } },
{ "type": "Feature", "properties": { "Name": "Nespresso Boutique Bar"}, "geometry": { "type": "Point", "coordinates": [-122.4048337,37.7876171] } },
{ "type": "Feature", "properties": { "Name": "Spiro"}, "geometry": { "type": "Point", "coordinates": [-122.420589,37.7833021] } },
{ "type": "Feature", "properties": { "Name": "Moka Coffee"}, "geometry": { "type": "Point", "coordinates": [-122.4211223,37.7916797] } },
{ "type": "Feature", "properties": { "Name": "DavidsTea"}, "geometry": { "type": "Point", "coordinates": [-122.440724,37.800308] } },
{ "type": "Feature", "properties": { "Name": "T-Pumps"}, "geometry": { "type": "Point", "coordinates": [-122.4786154,37.7637134] } },
{ "type": "Feature", "properties": { "Name": "Aroma Cafe"}, "geometry": { "type": "Point", "coordinates": [-122.417134,37.7828063] } },
{ "type": "Feature", "properties": { "Name": "Bernie's"}, "geometry": { "type": "Point", "coordinates": [-122.4029354,37.7894677] } },
{ "type": "Feature", "properties": { "Name": "DavidsTea"}, "geometry": { "type": "Point", "coordinates": [-122.429057,37.7518133] } },
{ "type": "Feature", "properties": { "Name": "The Chai Cart"}, "geometry": { "type": "Point", "coordinates": [-122.3968133,37.7929318] } },
{ "type": "Feature", "properties": { "Name": "Better Cup"}, "geometry": { "type": "Point", "coordinates": [-122.3881302,37.7666035] } },
{ "type": "Feature", "properties": { "Name": "Power Up Cafe"}, "geometry": { "type": "Point", "coordinates": [-122.4068514,37.7696158] } }
]
}