{
"type": "FeatureCollection",
"year": 2014,

"features": [
{ "type": "Feature", "link": "http://www.yelp.com/biz/bereka-coffee-san-francisco", "properties": { "Name": "Bereka "}, "geometry": { "type": "Point", "coordinates": [ -122.439938,37.799786] } },
{ "type": "Feature", "link": "http://www.yelp.com/biz/beanstalk-cafe-san-francisco-2", "properties": { "Name": "Beanstalk Cafe "}, "geometry": { "type": "Point", "coordinates": [ -122.409328,37.790304] } },
{ "type": "Feature", "link": "http://www.yelp.com/biz/four-barrel-coffee-san-francisco-4", "properties": { "Name": "Four Barrel "}, "geometry": { "type": "Point", "coordinates": [-122.4036926,37.7289491] } },
{ "type": "Feature", "link": "http://www.yelp.com/biz/cafe-st-jorge-san-francisco", "properties": { "Name": "Cafe St. Jorge "}, "geometry": { "type": "Point", "coordinates": [-122.4225729,37.7416669] } },
{ "type": "Feature", "link": "http://www.yelp.com/biz/workshop-cafe-san-francisco", "properties": { "Name": "Workshop Cafe "}, "geometry": { "type": "Point", "coordinates": [-122.402155,37.790758] } },
{ "type": "Feature", "link": "http://www.yelp.com/biz/joys-place-san-francisco", "properties": { "Name": "Joy's Place "}, "geometry": { "type": "Point", "coordinates": [-122.4119992,37.7877202] } },
{ "type": "Feature", "link": "http://www.yelp.com/biz/tierra-mia-coffee-san-francisco", "properties": { "Name": "Tierra Mia Coffee "}, "geometry": { "type": "Point", "coordinates": [-122.4198395,37.7460333] } },
{ "type": "Feature", "link": "http://www.yelp.com/biz/linea-caffe-san-francisco", "properties": { "Name": "Linea Caffe "}, "geometry": { "type": "Point", "coordinates": [-122.4199166,37.7616759] } },
{ "type": "Feature", "link": "http://www.yelp.com/biz/20th-century-cafe-san-francisco-2", "properties": { "Name": "20th Century Cafe "}, "geometry": { "type": "Point", "coordinates": [-122.4223777,37.774876] } },
{ "type": "Feature", "link": "http://www.yelp.com/biz/cafe-terminus-san-francisco", "properties": { "Name": "Cafe Terminus "}, "geometry": { "type": "Point", "coordinates": [-122.3967409,37.7937739] } },
{ "type": "Feature", "link": "http://www.yelp.com/biz/dripd-coffee-lab-san-francisco", "properties": { "Name": "Drip'd Coffee Lab "}, "geometry": { "type": "Point", "coordinates": [-122.466247,37.7630205] } },
{ "type": "Feature", "link": "http://www.yelp.com/biz/muka-san-francisco-2", "properties": { "Name": "Muka "}, "geometry": { "type": "Point", "coordinates": [-122.422554,37.7781054] } },
{ "type": "Feature", "link": "http://www.yelp.com/biz/coffee-cultures-san-francisco", "properties": { "Name": "Coffee Cultures "}, "geometry": { "type": "Point", "coordinates": [-122.4015048,37.7909012] } },
{ "type": "Feature", "link": "http://www.yelp.com/biz/eureka-cafe-san-francisco-2", "properties": { "Name": "Eureka Cafe "}, "geometry": { "type": "Point", "coordinates": [-122.434904,37.761728] } },
{ "type": "Feature", "link": "http://www.yelp.com/biz/caf%C3%A9-ub-san-francisco-2", "properties": { "Name": "Cafe UB "}, "geometry": { "type": "Point", "coordinates": [-122.430739,37.7610656] } },
{ "type": "Feature", "link": "http://www.yelp.com/biz/libby-jane-cafe-san-francisco-2", "properties": { "Name": "Libby Jane Cafe "}, "geometry": { "type": "Point", "coordinates": [-122.4189672,37.7827258] } },
{ "type": "Feature", "link": "http://www.yelp.com/biz/coffee-bar-san-francisco", "properties": { "Name": "Coffee Bar "}, "geometry": { "type": "Point", "coordinates": [-122.4046556,37.7921517] } },
{ "type": "Feature", "link": "http://www.yelp.com/biz/destiny-coffee-and-tea-san-francisco", "properties": { "Name": "Destiny Coffee & Tea "}, "geometry": { "type": "Point", "coordinates": [-122.4048498,37.7937286] } },
{ "type": "Feature", "link": "http://www.yelp.com/biz/mission-bubbles-and-coffee-san-francisco", "properties": { "Name": "Mission Bubbles & Coffee "}, "geometry": { "type": "Point", "coordinates": [-122.4228203,37.7720377] } },
{ "type": "Feature", "link": "http://www.yelp.com/biz/peets-coffee-and-tea-san-francisco-82", "properties": { "Name": "Peet's Coffee "}, "geometry": { "type": "Point", "coordinates": [-122.4500209,37.7654603] } },
{ "type": "Feature", "link": "http://www.yelp.com/biz/microryza-coffee-roasters-san-francisco", "properties": { "Name": "Microryza Coffee Roasters "}, "geometry": { "type": "Point", "coordinates": [-122.3941531,37.7864158] } },
{ "type": "Feature", "link": "http://www.yelp.com/biz/emos-cafe-san-francisco", "properties": { "Name": "Emo's Cafe "}, "geometry": { "type": "Point", "coordinates": [-122.4126466,37.7828379] } },
{ "type": "Feature", "link": "http://www.yelp.com/biz/astronaut-cafe-san-francisco", "properties": { "Name": "Astronaut Cafe "}, "geometry": { "type": "Point", "coordinates": [-122.4120073,37.7697932] } },
{ "type": "Feature", "link": "http://www.yelp.com/biz/de-la-paz-coffee-san-francisco-4", "properties": { "Name": "De La Paz "}, "geometry": { "type": "Point", "coordinates": [-122.403672,37.7860025] } },
{ "type": "Feature", "link": "http://www.yelp.com/biz/sea-biscuit-cafe-and-wine-bar-san-francisco", "properties": { "Name": "Sea Biscuit Cafe "}, "geometry": { "type": "Point", "coordinates": [-122.5046522,37.7528431] } },
{ "type": "Feature", "link": "http://www.yelp.com/biz/evas-coffee-san-francisco", "properties": { "Name": "Eva's Coffee "}, "geometry": { "type": "Point", "coordinates": [-122.4253936,37.8009041] } },
{ "type": "Feature", "link": "http://www.yelp.com/biz/espresso-subito-san-francisco", "properties": { "Name": "Espresso Subito "}, "geometry": { "type": "Point", "coordinates": [ -122.397908,37.793606] } },
{ "type": "Feature", "link": "http://www.yelp.com/biz/saint-frank-coffee-san-francisco-2", "properties": { "Name": "Saint Frank Coffee "}, "geometry": { "type": "Point", "coordinates": [-122.4220865,37.7984716] } }
]
}